[{"name": "Braidwood", "sa2": "101021007", "lon": 149.9779095115459, "lat": -35.359484122084886, "population": 16921, "income": 1478, "income_level": 1}, {"name": "Karabar", "sa2": "101021008", "lon": 149.24465307380495, "lat": -35.37387342048776, "population": 18023, "income": 1460, "income_level": 1}, {"name": "Queanbeyan", "sa2": "101021009", "lon": 149.23366193463642, "lat": -35.34989024609086, "population": 22530, "income": 1743, "income_level": 2}, {"name": "Queanbeyan - East", "sa2": "101021010", "lon": 149.2432268194223, "lat": -35.34184899426661, "population": 24879, "income": 1662, "income_level": 2}, {"name": "Queanbeyan Region", "sa2": "101021011", "lon": 149.1932853075673, "lat": -35.39498732667302, "population": 23921, "income": 1645, "income_level": 2}, {"name": "Queanbeyan West - Jerrabomberra", "sa2": "101021012", "lon": 149.19432222506595, "lat": -35.401717963976004, "population": 12322, "income": 1481, "income_level": 1}, {"name": "Bombala", "sa2": "101031013", "lon": 149.3266127161713, "lat": -36.89915189258918, "population": 16156, "income": 1556, "income_level": 1}, {"name": "Cooma", "sa2": "101031014", "lon": 149.11085136906675, "lat": -36.249642699209474, "population": 16130, "income": 2476, "income_level": 3}, {"name": "Cooma Region", "sa2": "101031015", "lon": 148.82483946533952, "lat": -35.9193248374964, "population": 32645, "income": 2490, "income_level": 3}, {"name": "Jindabyne - Berridale", "sa2": "101031016", "lon": 148.6189524548501, "lat": -36.42216409562495, "population": 17312, "income": 1927, "income_level": 2}, {"name": "Batemans Bay", "sa2": "101041017", "lon": 150.19211954095397, "lat": -35.716182020085505, "population": 3793, "income": 2379, "income_level": 3}, {"name": "Batemans Bay - South", "sa2": "101041018", "lon": 150.23488376606258, "lat": -35.78827782862496, "population": 22938, "income": 2061, "income_level": 3}, {"name": "Bega - Tathra", "sa2": "101041019", "lon": 149.83782134360007, "lat": -36.668196761883294, "population": 18445, "income": 1067, "income_level": 1}, {"name": "Bega-Eden Hinterland", "sa2": "101041020", "lon": 149.5747940556482, "lat": -36.623329175333275, "population": 8356, "income": 1798, "income_level": 2}, {"name": "Broulee - Tomakin", "sa2": "101041021", "lon": 150.17215995033334, "lat": -35.84039323961107, "population": 20671, "income": 1846, "income_level": 2}, {"name": "Deua - Wadbilliga", "sa2": "101041022", "lon": 149.91834433462887, "lat": -36.230962280403155, "population": 20709, "income": 1257, "income_level": 1}, {"name": "Eden", "sa2": "101041023", "lon": 149.9038755708422, "lat": -37.05744236789469, "population": 22698, "income": 1200, "income_level": 1}, {"name": "Eurobodalla Hinterland", "sa2": "101041024", "lon": 150.34287560828207, "lat": -35.59452497853843, "population": 40, "income": 0, "income_level": 1}, {"name": "Merimbula - Tura Beach", "sa2": "101041025", "lon": 149.9099144446667, "lat": -36.87905127905552, "population": 21154, "income": 1817, "income_level": 2}, {"name": "Moruya - Tuross Head", "sa2": "101041026", "lon": 150.04837706122638, "lat": -35.92723867246043, "population": 18, "income": 0, "income_level": 1}, {"name": "Narooma - Bermagui", "sa2": "101041027", "lon": 150.0622980837797, "lat": -36.42071289923724, "population": 10817, "income": 2028, "income_level": 3}, {"name": "Goulburn", "sa2": "101051539", "lon": 149.70676275642862, "lat": -34.740757275642814, "population": 24410, "income": 1596, "income_level": 2}, {"name": "Goulburn Region", "sa2": "101051540", "lon": 149.58186392548012, "lat": -34.959202254283696, "population": 11373, "income": 1334, "income_level": 1}, {"name": "Yass", "sa2": "101061541", "lon": 148.9124477629001, "lat": -34.83714359999995, "population": 10, "income": 0, "income_level": 1}, {"name": "Yass Region", "sa2": "101061542", "lon": 148.87935237213938, "lat": -34.67579992892865, "population": 58, "income": 0, "income_level": 1}, {"name": "Young", "sa2": "101061543", "lon": 148.32082369641384, "lat": -34.276087605517205, "population": 26533, "income": 1807, "income_level": 2}, {"name": "Young Region", "sa2": "101061544", "lon": 148.34986405747372, "lat": -34.54593381547365, "population": 20231, "income": 2062, "income_level": 3}, {"name": "Avoca Beach - Copacabana", "sa2": "102011028", "lon": 151.4389200202001, "lat": -33.47192789159995, "population": 7846, "income": 2092, "income_level": 3}, {"name": "Box Head - MacMasters Beach", "sa2": "102011029", "lon": 151.3580402541501, "lat": -33.50024918724995, "population": 11320, "income": 2158, "income_level": 3}, {"name": "Calga - Kulnura", "sa2": "102011030", "lon": 151.1852831338818, "lat": -33.320205586301036, "population": 16233, "income": 2447, "income_level": 3}, {"name": "Erina - Green Point", "sa2": "102011031", "lon": 151.4053183861539, "lat": -33.44324015173073, "population": 19609, "income": 1814, "income_level": 2}, {"name": "Gosford - Springfield", "sa2": "102011032", "lon": 151.3555295817779, "lat": -33.43948637499996, "population": 24839, "income": 1895, "income_level": 2}, {"name": "Kariong", "sa2": "102011033", "lon": 151.2866213679525, "lat": -33.44294951076186, "population": 21205, "income": 1861, "income_level": 2}, {"name": "Kincumber - Picketts Valley", "sa2": "102011034", "lon": 151.40628827607148, "lat": -33.47031199587496, "population": 21656, "income": 1941, "income_level": 2}, {"name": "Narara", "sa2": "102011035", "lon": 151.33391402806672, "lat": -33.405548613133284, "population": 22501, "income": 1562, "income_level": 1}, {"name": "Niagara Park - Lisarow", "sa2": "102011036", "lon": 151.35152166700007, "lat": -33.38060242066661, "population": 16412, "income": 2144, "income_level": 3}, {"name": "Point Clare - Koolewong", "sa2": "102011037", "lon": 151.31486032839138, "lat": -33.45759853695647, "population": 27407, "income": 1943, "income_level": 2}, {"name": "Saratoga - Davistown", "sa2": "102011038", "lon": 151.34195767107695, "lat": -33.47170578138457, "population": 33060, "income": 1747, "income_level": 2}, {"name": "Terrigal - North Avoca", "sa2": "102011039", "lon": 151.44203612987505, "lat": -33.44704979374996, "population": 18398, "income": 2385, "income_level": 3}, {"name": "Umina - Booker Bay - Patonga", "sa2": "102011040", "lon": 151.3393727190001, "lat": -33.513179524888834, "population": 20728, "income": 2353, "income_level": 3}, {"name": "Wamberal - Forresters Beach", "sa2": "102011041", "lon": 151.44328640041678, "lat": -33.42327045295829, "population": 16857, "income": 2153, "income_level": 3}, {"name": "Woy Woy - Blackwall", "sa2": "102011042", "lon": 151.29701037364524, "lat": -33.49619323080641, "population": 0, "income": 0, "income_level": 1}, {"name": "Wyoming", "sa2": "102011043", "lon": 151.35198010152638, "lat": -33.41215758226312, "population": 24868, "income": 2685, "income_level": 3}, {"name": "Bateau Bay - Killarney Vale", "sa2": "102021044", "lon": 151.471706627077, "lat": -33.37098626984611, "population": 10829, "income": 2295, "income_level": 3}, {"name": "Blue Haven - San Remo", "sa2": "102021045", "lon": 151.52173676090007, "lat": -33.21722764869994, "population": 15170, "income": 2396, "income_level": 3}, {"name": "Budgewoi - Buff Point - Halekulani", "sa2": "102021046", "lon": 151.55345545150004, "lat": -33.223423450874954, "population": 11840, "income": 2898, "income_level": 3}, {"name": "Chittaway Bay - Tumbi Umbi", "sa2": "102021047", "lon": 151.42083415050013, "lat": -33.33514666822615, "population": 7685, "income": 2557, "income_level": 3}, {"name": "Gorokan - Kanwal - Charmhaven", "sa2": "102021048", "lon": 151.50227980332684, "lat": -33.24676845633659, "population": 25452, "income": 2342, "income_level": 3}, {"name": "Jilliby - Yarramalong", "sa2": "102021049", "lon": 151.2162685769504, "lat": -33.130841471212705, "population": 24036, "income": 1767, "income_level": 2}, {"name": "Lake Munmorah - Mannering Park", "sa2": "102021050", "lon": 151.57390617337506, "lat": -33.165459204499946, "population": 14882, "income": 1642, "income_level": 2}, {"name": "Ourimbah - Fountaindale", "sa2": "102021051", "lon": 151.3369312440406, "lat": -33.294313593864814, "population": 15599, "income": 1379, "income_level": 1}, {"name": "Summerland Point - Gwandalan", "sa2": "102021052", "lon": 151.59036957600009, "lat": -33.14371593222217, "population": 9812, "income": 2069, "income_level": 3}, {"name": "The Entrance", "sa2": "102021053", "lon": 151.5009652322308, "lat": -33.34897942692304, "population": 10683, "income": 1529, "income_level": 1}, {"name": "Toukley - Norah Head", "sa2": "102021054", "lon": 151.56843717191313, "lat": -33.28405978326083, "population": 10199, "income": 1662, "income_level": 2}, {"name": "Tuggerah - Kangy Angy", "sa2": "102021055", "lon": 151.4357517080572, "lat": -33.31289572122852, "population": 16873, "income": 2182, "income_level": 3}, {"name": "Warnervale - Wadalba", "sa2": "102021056", "lon": 151.46111091956763, "lat": -33.266574564351295, "population": 13112, "income": 2148, "income_level": 3}, {"name": "Wyong", "sa2": "102021057", "lon": 151.44211307235003, "lat": -33.281094359249956, "population": 21828, "income": 1197, "income_level": 1}, {"name": "Bathurst", "sa2": "103011058", "lon": 149.54230085675007, "lat": -33.36983389916663, "population": 900, "income": 1973, "income_level": 2}, {"name": "Bathurst - East", "sa2": "103011059", "lon": 149.59633775213345, "lat": -33.40013852366662, "population": 11309, "income": 1386, "income_level": 1}, {"name": "Bathurst Region", "sa2": "103011060", "lon": 149.70778006827663, "lat": -33.43017831427121, "population": 25964, "income": 1184, "income_level": 1}, {"name": "Oberon", "sa2": "103011061", "lon": 149.6195510359424, "lat": -33.74817410223907, "population": 16475, "income": 1536, "income_level": 1}, {"name": "Condobolin", "sa2": "103021062", "lon": 146.4837103547122, "lat": -33.129007483181375, "population": 25788, "income": 1763, "income_level": 2}, {"name": "Cowra", "sa2": "103021063", "lon": 148.69638101895015, "lat": -33.820779430124944, "population": 16219, "income": 1568, "income_level": 1}, {"name": "Cowra Region", "sa2": "103021064", "lon": 148.85722795673922, "lat": -33.930185307826044, "population": 20706, "income": 1225, "income_level": 1}, {"name": "Forbes", "sa2": "103021065", "lon": 148.54215289621288, "lat": -33.370428588151974, "population": 16237, "income": 1120, "income_level": 1}, {"name": "Grenfell", "sa2": "103021066", "lon": 147.79091700159265, "lat": -34.01187313359255, "population": 15998, "income": 1125, "income_level": 1}, {"name": "Parkes (NSW)", "sa2": "103021067", "lon": 148.1724090549584, "lat": -33.141733046916634, "population": 19037, "income": 1260, "income_level": 1}, {"name": "Parkes Region", "sa2": "103021068", "lon": 148.1916903998612, "lat": -32.90162699109719, "population": 30622, "income": 1285, "income_level": 1}, {"name": "West Wyalong", "sa2": "103021069", "lon": 146.91949671496232, "lat": -34.02008002738361, "population": 23680, "income": 1757, "income_level": 2}, {"name": "Lithgow", "sa2": "103031070", "lon": 150.12553031340005, "lat": -33.50154338266663, "population": 20757, "income": 1153, "income_level": 1}, {"name": "Lithgow Region", "sa2": "103031071", "lon": 149.9164047050002, "lat": -33.41331056313039, "population": 13738, "income": 1387, "income_level": 1}, {"name": "Mudgee", "sa2": "103031072", "lon": 149.57465345811437, "lat": -32.59446625822853, "population": 17023, "income": 1012, "income_level": 1}, {"name": "Mudgee Region - East", "sa2": "103031073", "lon": 149.84579000388788, "lat": -32.79955812461334, "population": 10218, "income": 1074, "income_level": 1}, {"name": "Mudgee Region - West", "sa2": "103031074", "lon": 149.79553709289402, "lat": -32.102356137403994, "population": 23608, "income": 1379, "income_level": 1}, {"name": "Wollangambe - Wollemi", "sa2": "103031075", "lon": 150.49733391671919, "lat": -32.90423749956067, "population": 23904, "income": 1678, "income_level": 2}, {"name": "Blayney", "sa2": "103041076", "lon": 149.32521422545102, "lat": -33.62730937432349, "population": 13784, "income": 1417, "income_level": 1}, {"name": "Orange", "sa2": "103041077", "lon": 149.10337630917655, "lat": -33.29281892623524, "population": 12613, "income": 2089, "income_level": 3}, {"name": "Orange - North", "sa2": "103041078", "lon": 149.11601226536123, "lat": -33.267038652138844, "population": 17933, "income": 1735, "income_level": 2}, {"name": "Orange Region", "sa2": "103041079", "lon": 149.3152443731196, "lat": -33.222461838222785, "population": 11280, "income": 1019, "income_level": 1}, {"name": "Grafton", "sa2": "104011080", "lon": 152.89852153066226, "lat": -29.717852767135096, "population": 24070, "income": 1738, "income_level": 2}, {"name": "Grafton Region", "sa2": "104011081", "lon": 153.1028330093575, "lat": -29.57532493195607, "population": 21448, "income": 1747, "income_level": 2}, {"name": "Maclean - Yamba - Iluka", "sa2": "104011082", "lon": 153.25787616682834, "lat": -29.37887130399003, "population": 26478, "income": 1547, "income_level": 1}, {"name": "Bellingen", "sa2": "104021083", "lon": 152.76149187337234, "lat": -30.469175621648873, "population": 12611, "income": 1642, "income_level": 2}, {"name": "Coffs Harbour - North", "sa2": "104021084", "lon": 153.08784267927558, "lat": -30.2746564746535, "population": 11311, "income": 1680, "income_level": 2}, {"name": "Coffs Harbour - South", "sa2": "104021085", "lon": 153.08785612780386, "lat": -30.309631065556925, "population": 15969, "income": 1634, "income_level": 2}, {"name": "Coramba - Nana Glen - Bucca", "sa2": "104021086", "lon": 153.0167168860001, "lat": -30.199549695299947, "population": 13969, "income": 1416, "income_level": 1}, {"name": "Dorrigo", "sa2": "104021087", "lon": 152.52896721912006, "lat": -30.356449397799956, "population": 19961, "income": 1639, "income_level": 2}, {"name": "Korora - Emerald Beach", "sa2": "104021088", "lon": 153.1495747206223, "lat": -30.222911610988845, "population": 15976, "income": 1504, "income_level": 1}, {"name": "Sawtell - Boambee", "sa2": "104021089", "lon": 153.08524825258985, "lat": -30.3383023604615, "population": 21740, "income": 2144, "income_level": 3}, {"name": "Urunga", "sa2": "104021090", "lon": 153.02164986651115, "lat": -30.513828413044404, "population": 24847, "income": 1860, "income_level": 2}, {"name": "Woolgoolga - Arrawarra", "sa2": "104021091", "lon": 153.19906040044174, "lat": -30.005629780674784, "population": 18325, "income": 2300, "income_level": 3}, {"name": "Bourke - Brewarrina", "sa2": "105011092", "lon": 145.95093611531584, "lat": -30.052581788105226, "population": 20441, "income": 2079, "income_level": 3}, {"name": "Cobar", "sa2": "105011093", "lon": 146.4724271042858, "lat": -33.11025322166228, "population": 15687, "income": 2673, "income_level": 3}, {"name": "Coonamble", "sa2": "105011094", "lon": 147.8736578457273, "lat": -30.932903561454506, "population": 26387, "income": 2301, "income_level": 3}, {"name": "Nyngan - Warren", "sa2": "105011095", "lon": 147.19207272440008, "lat": -31.569173885299953, "population": 13991, "income": 2601, "income_level": 3}, {"name": "Walgett - Lightning Ridge", "sa2": "105011096", "lon": 147.99720643763717, "lat": -29.336263258696246, "population": 24501, "income": 1643, "income_level": 2}, {"name": "Broken Hill", "sa2": "105021097", "lon": 141.4328743875239, "lat": -31.98405176264281, "population": 24649, "income": 1545, "income_level": 1}, {"name": "Far West", "sa2": "105021098", "lon": 143.0888913528637, "lat": -30.85219289513632, "population": 10448, "income": 1776, "income_level": 2}, {"name": "Coonabarabran", "sa2": "105031099", "lon": 149.34884427043815, "lat": -31.345673660960113, "population": 17228, "income": 1623, "income_level": 2}, {"name": "Dubbo - East", "sa2": "105031100", "lon": 148.60948417071432, "lat": -32.23672331878567, "population": 16811, "income": 1837, "income_level": 2}, {"name": "Dubbo - South", "sa2": "105031101", "lon": 148.62878862375, "lat": -32.26479925583329, "population": 13470, "income": 2020, "income_level": 3}, {"name": "Dubbo - West", "sa2": "105031102", "lon": 148.57889374531825, "lat": -32.25419231122723, "population": 16211, "income": 1719, "income_level": 2}, {"name": "Dubbo Region", "sa2": "105031103", "lon": 148.7423349485162, "lat": -32.22726957190317, "population": 25013, "income": 1892, "income_level": 2}, {"name": "Gilgandra", "sa2": "105031104", "lon": 148.69865217423396, "lat": -31.491467108358457, "population": 3546, "income": 1809, "income_level": 2}, {"name": "Narromine", "sa2": "105031105", "lon": 148.15688576190246, "lat": -32.34864103982108, "population": 28683, "income": 1950, "income_level": 2}, {"name": "Wellington", "sa2": "105031106", "lon": 148.96524293742985, "lat": -32.55452845414059, "population": 20857, "income": 2186, "income_level": 3}, {"name": "Branxton - Greta - Pokolbin", "sa2": "106011107", "lon": 151.36564186915794, "lat": -32.65360285152627, "population": 26734, "income": 2532, "income_level": 3}, {"name": "Cessnock", "sa2": "106011108", "lon": 151.3382537832728, "lat": -32.83115410963632, "population": 10500, "income": 2399, "income_level": 3}, {"name": "Cessnock Region", "sa2": "106011109", "lon": 151.24115343593007, "lat": -32.895711304201605, "population": 25462, "income": 2857, "income_level": 3}, {"name": "Dungog", "sa2": "106011110", "lon": 151.39578855830345, "lat": -32.25673767283837, "population": 18287, "income": 2188, "income_level": 3}, {"name": "Kurri Kurri - Abermain", "sa2": "106011111", "lon": 151.4374549334024, "lat": -32.83016420483902, "population": 11699, "income": 2153, "income_level": 3}, {"name": "Singleton", "sa2": "106011112", "lon": 151.1738595053126, "lat": -32.566951728749956, "population": 18531, "income": 2298, "income_level": 3}, {"name": "Singleton Region", "sa2": "106011113", "lon": 151.0957690029769, "lat": -32.31893122988023, "population": 11801, "income": 1634, "income_level": 2}, {"name": "Maitland", "sa2": "106021114", "lon": 151.52915616744158, "lat": -32.77907066775776, "population": 10679, "income": 1828, "income_level": 2}, {"name": "Maitland - East", "sa2": "106021115", "lon": 151.61121014915162, "lat": -32.77320993160601, "population": 9601, "income": 1842, "income_level": 2}, {"name": "Maitland - North", "sa2": "106021116", "lon": 151.58817102663554, "lat": -32.68683390072914, "population": 21327, "income": 2428, "income_level": 3}, {"name": "Maitland - West", "sa2": "106021117", "lon": 151.53322888247737, "lat": -32.69511457018178, "population": 23148, "income": 2760, "income_level": 3}, {"name": "Thornton - Millers Forest", "sa2": "106021118", "lon": 151.68741375190444, "lat": -32.75175729417641, "population": 16352, "income": 3010, "income_level": 3}, {"name": "Anna Bay", "sa2": "106031119", "lon": 152.03103753187906, "lat": -32.74917609007003, "population": 20451, "income": 2542, "income_level": 3}, {"name": "Lemon Tree Passage - Tanilba Bay", "sa2": "106031120", "lon": 152.0321378744001, "lat": -32.73337277859996, "population": 19268, "income": 2459, "income_level": 3}, {"name": "Nelson Bay Peninsula", "sa2": "106031121", "lon": 152.17452436893552, "lat": -32.72157466709673, "population": 17826, "income": 2810, "income_level": 3}, {"name": "Raymond Terrace", "sa2": "106031122", "lon": 151.76620347400006, "lat": -32.764482971214235, "population": 19079, "income": 2385, "income_level": 3}, {"name": "Seaham - Woodville", "sa2": "106031123", "lon": 151.60929513339462, "lat": -32.67405643368022, "population": 18022, "income": 2364, "income_level": 3}, {"name": "Tea Gardens - Hawks Nest", "sa2": "106031124", "lon": 152.1016309621464, "lat": -32.682801791658484, "population": 28475, "income": 2522, "income_level": 3}, {"name": "Williamtown - Medowie - Karuah", "sa2": "106031125", "lon": 151.95068737268497, "lat": -32.69506684934014, "population": 17852, "income": 2265, "income_level": 3}, {"name": "Muswellbrook", "sa2": "106041126", "lon": 150.89289076516008, "lat": -32.28231494523996, "population": 10706, "income": 2466, "income_level": 3}, {"name": "Muswellbrook Region", "sa2": "106041127", "lon": 150.68444364950005, "lat": -32.389697451499956, "population": 20186, "income": 2803, "income_level": 3}, {"name": "Scone", "sa2": "106041128", "lon": 150.8229651650734, "lat": -32.051777392099964, "population": 21704, "income": 2481, "income_level": 3}, {"name": "Scone Region", "sa2": "106041129", "lon": 151.31870345906057, "lat": -32.02753451443749, "population": 12376, "income": 2169, "income_level": 3}, {"name": "Dapto - Avondale", "sa2": "107011131", "lon": 150.82016835927783, "lat": -34.490757857166635, "population": 10742, "income": 2127, "income_level": 3}, {"name": "Horsley - Kembla Grange", "sa2": "107011132", "lon": 150.7577130458046, "lat": -34.492990512960844, "population": 13181, "income": 2167, "income_level": 3}, {"name": "Port Kembla Industrial", "sa2": "107011133", "lon": 150.8669310179778, "lat": -34.45469897672218, "population": 24132, "income": 2074, "income_level": 3}, {"name": "Unanderra - Mount Kembla", "sa2": "107011134", "lon": 150.85614887616336, "lat": -34.450994441693844, "population": 13885, "income": 2031, "income_level": 3}, {"name": "Berkeley - Lake Heights - Cringila", "sa2": "107011545", "lon": 150.87370980118106, "lat": -34.488520972267196, "population": 7482, "income": 2002, "income_level": 2}, {"name": "Port Kembla - Warrawong", "sa2": "107011546", "lon": 150.9171022373415, "lat": -34.4919976944146, "population": 24951, "income": 1792, "income_level": 2}, {"name": "Windang - Primbee", "sa2": "107011547", "lon": 150.86889948583345, "lat": -34.532392092166624, "population": 12798, "income": 2287, "income_level": 3}, {"name": "Illawarra Catchment Reserve", "sa2": "107021135", "lon": 150.58420649220903, "lat": -34.35046646013251, "population": 25170, "income": 2398, "income_level": 3}, {"name": "Albion Park - Macquarie Pass", "sa2": "107031136", "lon": 150.77819974355563, "lat": -34.595154290777714, "population": 20978, "income": 2251, "income_level": 3}, {"name": "Albion Park Rail", "sa2": "107031137", "lon": 150.78702892982864, "lat": -34.54617434297138, "population": 16870, "income": 2187, "income_level": 3}, {"name": "Kiama", "sa2": "107031138", "lon": 150.8530194500527, "lat": -34.686413477789436, "population": 24773, "income": 2009, "income_level": 2}, {"name": "Kiama Downs - Minnamurra", "sa2": "107031139", "lon": 150.84460849615007, "lat": -34.620084134999956, "population": 3646, "income": 2479, "income_level": 3}, {"name": "Kiama Hinterland - Gerringong", "sa2": "107031140", "lon": 150.7849439581466, "lat": -34.67839202062621, "population": 12960, "income": 1814, "income_level": 2}, {"name": "Shellharbour - Flinders", "sa2": "107031141", "lon": 150.83820719288465, "lat": -34.576611308461494, "population": 20980, "income": 2124, "income_level": 3}, {"name": "Shellharbour - Oak Flats", "sa2": "107031142", "lon": 150.80684085292398, "lat": -34.563820083760824, "population": 28575, "income": 2076, "income_level": 3}, {"name": "Warilla", "sa2": "107031143", "lon": 150.85283956212507, "lat": -34.561238462499944, "population": 18963, "income": 1354, "income_level": 1}, {"name": "Balgownie - Fairy Meadow", "sa2": "107041144", "lon": 150.88971150625008, "lat": -34.38364722299995, "population": 18192, "income": 1345, "income_level": 1}, {"name": "Corrimal - Tarrawanna - Bellambi", "sa2": "107041145", "lon": 150.88352392172544, "lat": -34.37991673420873, "population": 20399, "income": 1621, "income_level": 2}, {"name": "Figtree - Keiraville", "sa2": "107041146", "lon": 150.84769521390007, "lat": -34.44616564154995, "population": 0, "income": 0, "income_level": 1}, {"name": "Helensburgh", "sa2": "107041147", "lon": 150.9855224772778, "lat": -34.20075311155551, "population": 19987, "income": 1518, "income_level": 1}, {"name": "Thirroul - Austinmer - Coalcliff", "sa2": "107041148", "lon": 150.92767411920593, "lat": -34.3140662683529, "population": 16536, "income": 1431, "income_level": 1}, {"name": "Woonona - Bulli - Russell Vale", "sa2": "107041150", "lon": 150.91869783498674, "lat": -34.32791227110661, "population": 23554, "income": 1403, "income_level": 1}, {"name": "Wollongong - East", "sa2": "107041548", "lon": 150.90201362080006, "lat": -34.41922007893329, "population": 19885, "income": 1491, "income_level": 1}, {"name": "Wollongong - West", "sa2": "107041549", "lon": 150.87485747414297, "lat": -34.424467613357095, "population": 20880, "income": 1533, "income_level": 1}, {"name": "Bulahdelah - Stroud", "sa2": "108011151", "lon": 151.74390916769894, "lat": -32.167643384260586, "population": 5741, "income": 1578, "income_level": 1}, {"name": "Forster", "sa2": "108011152", "lon": 152.51649639912506, "lat": -32.17949055349995, "population": 9626, "income": 2170, "income_level": 3}, {"name": "Forster-Tuncurry Region", "sa2": "108011153", "lon": 152.2898342081756, "lat": -32.265861540010604, "population": 16790, "income": 1626, "income_level": 2}, {"name": "Tuncurry", "sa2": "108011154", "lon": 152.49578154318192, "lat": -32.18125861509087, "population": 8998, "income": 1929, "income_level": 2}, {"name": "Kempsey", "sa2": "108021155", "lon": 152.87230916869566, "lat": -31.148043660360226, "population": 5561, "income": 1074, "income_level": 1}, {"name": "Kempsey Region", "sa2": "108021156", "lon": 152.8831463108287, "lat": -31.245696325753986, "population": 18938, "income": 1965, "income_level": 2}, {"name": "Macksville - Scotts Head", "sa2": "108021157", "lon": 152.92260187120007, "lat": -30.707550521866615, "population": 13, "income": 1625, "income_level": 2}, {"name": "Nambucca Heads", "sa2": "108021158", "lon": 153.00562070589476, "lat": -30.61102622742101, "population": 13224, "income": 1046, "income_level": 1}, {"name": "Nambucca Heads Region", "sa2": "108021159", "lon": 153.0037573965683, "lat": -30.5990838524545, "population": 11259, "income": 1463, "income_level": 1}, {"name": "South West Rocks", "sa2": "108021160", "lon": 153.04050582875007, "lat": -30.90532054014995, "population": 21634, "income": 1731, "income_level": 2}, {"name": "Lord Howe Island", "sa2": "108031161", "lon": 159.1056586306317, "lat": -31.540242895210483, "population": 6076, "income": 1239, "income_level": 1}, {"name": "Laurieton - Bonny Hills", "sa2": "108041162", "lon": 152.73801528595658, "lat": -31.62718248401444, "population": 3, "income": 0, "income_level": 1}, {"name": "Port Macquarie - East", "sa2": "108041163", "lon": 152.9109071681112, "lat": -31.442141249222168, "population": 15641, "income": 1637, "income_level": 2}, {"name": "Port Macquarie - West", "sa2": "108041164", "lon": 152.90296646847324, "lat": -31.411281317161244, "population": 23720, "income": 1980, "income_level": 2}, {"name": "Port Macquarie Region", "sa2": "108041165", "lon": 152.49203168006676, "lat": -31.43580287992219, "population": 14220, "income": 1864, "income_level": 2}, {"name": "Wauchope", "sa2": "108041166", "lon": 152.79085000530017, "lat": -31.434304544999964, "population": 21202, "income": 2155, "income_level": 3}, {"name": "Gloucester", "sa2": "108051167", "lon": 151.60963120982797, "lat": -31.97184819300786, "population": 17288, "income": 1495, "income_level": 1}, {"name": "Old Bar - Manning Point - Red Head", "sa2": "108051168", "lon": 152.53410748975006, "lat": -32.06604416383329, "population": 19584, "income": 1410, "income_level": 1}, {"name": "Taree", "sa2": "108051169", "lon": 152.42758928805364, "lat": -31.939483920744003, "population": 9543, "income": 2235, "income_level": 3}, {"name": "Taree Region", "sa2": "108051170", "lon": 152.3443804576686, "lat": -31.960398800439712, "population": 13295, "income": 1142, "income_level": 1}, {"name": "Wingham", "sa2": "108051171", "lon": 152.37714912192317, "lat": -31.86743787315379, "population": 5189, "income": 1960, "income_level": 2}, {"name": "Albury - East", "sa2": "109011172", "lon": 147.01336757593342, "lat": -36.02040031299997, "population": 13842, "income": 1317, "income_level": 1}, {"name": "Albury - North", "sa2": "109011173", "lon": 146.93396009020694, "lat": -36.065205676206844, "population": 15328, "income": 1544, "income_level": 1}, {"name": "Albury - South", "sa2": "109011174", "lon": 146.88360905642867, "lat": -36.075789078071374, "population": 7374, "income": 1914, "income_level": 2}, {"name": "Albury Region", "sa2": "109011175", "lon": 146.90262952589052, "lat": -35.88425074490406, "population": 6436, "income": 2104, "income_level": 3}, {"name": "Lavington", "sa2": "109011176", "lon": 146.9329706411273, "lat": -36.02992459213869, "population": 19897, "income": 1859, "income_level": 2}, {"name": "Hay", "sa2": "109021177", "lon": 144.85287145112505, "lat": -34.50751987837496, "population": 11591, "income": 1387, "income_level": 1}, {"name": "Wentworth - Buronga", "sa2": "109021178", "lon": 142.03085705545456, "lat": -34.10026687752269, "population": 16072, "income": 1171, "income_level": 1}, {"name": "Wentworth-Balranald Region", "sa2": "109021179", "lon": 144.10272599610406, "lat": -34.25168897234798, "population": 18737, "income": 1949, "income_level": 2}, {"name": "Corowa", "sa2": "109031180", "lon": 146.37978251210262, "lat": -36.028351105230705, "population": 3, "income": 0, "income_level": 1}, {"name": "Corowa Region", "sa2": "109031181", "lon": 146.45951578994783, "lat": -35.543976255521436, "population": 17174, "income": 1260, "income_level": 1}, {"name": "Deniliquin", "sa2": "109031182", "lon": 144.97212819667007, "lat": -35.54743533941997, "population": 11323, "income": 1186, "income_level": 1}, {"name": "Deniliquin Region", "sa2": "109031183", "lon": 144.9611472685367, "lat": -36.02370453606094, "population": 8484, "income": 1287, "income_level": 1}, {"name": "Moama", "sa2": "109031184", "lon": 144.75928966575006, "lat": -36.06350617948327, "population": 8899, "income": 1319, "income_level": 1}, {"name": "Tocumwal - Finley - Jerilderie", "sa2": "109031185", "lon": 145.4150995336604, "lat": -35.80469168252394, "population": 19983, "income": 1568, "income_level": 1}, {"name": "Armidale", "sa2": "110011186", "lon": 151.676744981091, "lat": -30.525300675363585, "population": 5064, "income": 1210, "income_level": 1}, {"name": "Armidale Region - North", "sa2": "110011187", "lon": 151.6717646357001, "lat": -30.225780615899954, "population": 27361, "income": 1872, "income_level": 2}, {"name": "Armidale Region - South", "sa2": "110011188", "lon": 150.97773966343757, "lat": -30.33160743991927, "population": 21424, "income": 1624, "income_level": 2}, {"name": "Walcha", "sa2": "110011189", "lon": 151.34578354704766, "lat": -30.966176859642808, "population": 17786, "income": 1547, "income_level": 1}, {"name": "Glen Innes", "sa2": "110021190", "lon": 151.89659259750007, "lat": -29.776852506999944, "population": 18467, "income": 1172, "income_level": 1}, {"name": "Inverell", "sa2": "110021191", "lon": 151.05327273962322, "lat": -29.757811302913, "population": 15515, "income": 1027, "income_level": 1}, {"name": "Inverell Region - East", "sa2": "110021192", "lon": 151.0973852453772, "lat": -29.31433819849175, "population": 20826, "income": 1305, "income_level": 1}, {"name": "Inverell Region - West", "sa2": "110021193", "lon": 150.64410057119068, "lat": -30.083299667941148, "population": 26312, "income": 1762, "income_level": 2}, {"name": "Tenterfield", "sa2": "110021194", "lon": 151.88218559915455, "lat": -28.999622150778528, "population": 20950, "income": 1072, "income_level": 1}, {"name": "Moree", "sa2": "110031195", "lon": 149.83636746089476, "lat": -29.459004874526265, "population": 20720, "income": 1203, "income_level": 1}, {"name": "Moree Region", "sa2": "110031196", "lon": 150.3056112890455, "lat": -29.12377681740904, "population": 28450, "income": 1321, "income_level": 1}, {"name": "Narrabri", "sa2": "110031197", "lon": 149.78566644927784, "lat": -30.334659943055513, "population": 8, "income": 0, "income_level": 1}, {"name": "Narrabri Region", "sa2": "110031198", "lon": 149.44191944212506, "lat": -30.229316405958283, "population": 11, "income": 0, "income_level": 1}, {"name": "Gunnedah", "sa2": "110041199", "lon": 150.2046450514534, "lat": -30.972579751866615, "population": 22234, "income": 1587, "income_level": 1}, {"name": "Gunnedah Region", "sa2": "110041200", "lon": 150.26890628538317, "lat": -31.234408964655803, "population": 7872, "income": 2145, "income_level": 3}, {"name": "Quirindi", "sa2": "110041201", "lon": 150.75052841523538, "lat": -31.258414201339846, "population": 20382, "income": 1827, "income_level": 2}, {"name": "Tamworth - East", "sa2": "110041202", "lon": 150.94220808308827, "lat": -31.131043672558775, "population": 29249, "income": 1656, "income_level": 2}, {"name": "Tamworth - North", "sa2": "110041203", "lon": 150.91365315273794, "lat": -31.05847319508733, "population": 21935, "income": 1631, "income_level": 2}, {"name": "Tamworth - West", "sa2": "110041204", "lon": 150.90692829772726, "lat": -31.089835542181774, "population": 10773, "income": 2131, "income_level": 3}, {"name": "Tamworth Region", "sa2": "110041205", "lon": 150.4871812085201, "lat": -30.602229647359955, "population": 12847, "income": 1622, "income_level": 2}, {"name": "Belmont - Bennetts Green", "sa2": "111011206", "lon": 151.68592373213644, "lat": -33.00621294022722, "population": 15604, "income": 1680, "income_level": 2}, {"name": "Belmont South - Blacksmiths", "sa2": "111011207", "lon": 151.65666571970596, "lat": -33.07936997441172, "population": 27095, "income": 2051, "income_level": 3}, {"name": "Charlestown - Dudley", "sa2": "111011208", "lon": 151.6959577980527, "lat": -32.96677835673679, "population": 20493, "income": 2450, "income_level": 3}, {"name": "Glendale - Cardiff - Hillsborough", "sa2": "111011209", "lon": 151.64387519327946, "lat": -32.93338017080878, "population": 25047, "income": 1805, "income_level": 2}, {"name": "Mount Hutton - Windale", "sa2": "111011210", "lon": 151.6640490621876, "lat": -32.99538514299995, "population": 14414, "income": 1999, "income_level": 2}, {"name": "Redhead", "sa2": "111011211", "lon": 151.71642891780007, "lat": -33.005977460299945, "population": 10345, "income": 2738, "income_level": 3}, {"name": "Swansea - Caves Beach", "sa2": "111011212", "lon": 151.6233262239001, "lat": -33.117567232846646, "population": 21724, "income": 1645, "income_level": 2}, {"name": "Valentine - Eleebana", "sa2": "111011213", "lon": 151.6444921000001, "lat": -33.01086615362497, "population": 12310, "income": 2115, "income_level": 3}, {"name": "Warners Bay - Boolaroo", "sa2": "111011214", "lon": 151.6216869864211, "lat": -32.96440417350873, "population": 19375, "income": 1708, "income_level": 2}, {"name": "Bolton Point - Teralba", "sa2": "111021215", "lon": 151.61014675725008, "lat": -32.99808057866662, "population": 4141, "income": 2459, "income_level": 3}, {"name": "Bonnells Bay - Silverwater", "sa2": "111021216", "lon": 151.51731812754554, "lat": -33.10550560799996, "population": 27175, "income": 1721, "income_level": 2}, {"name": "Edgeworth - Cameron Park", "sa2": "111021217", "lon": 151.6034925556897, "lat": -32.92030689872409, "population": 17341, "income": 891, "income_level": 1}, {"name": "Morisset - Cooranbong", "sa2": "111021218", "lon": 151.49718874453734, "lat": -32.977348097492495, "population": 8911, "income": 1472, "income_level": 1}, {"name": "Toronto - Awaba", "sa2": "111021219", "lon": 151.5253725608733, "lat": -32.98967509911263, "population": 17891, "income": 2106, "income_level": 3}, {"name": "Wangi Wangi - Rathmines", "sa2": "111021220", "lon": 151.57526988447066, "lat": -33.06798940947054, "population": 60, "income": 1145, "income_level": 1}, {"name": "West Wallsend - Barnsley - Killingworth", "sa2": "111021221", "lon": 151.58996829886848, "lat": -32.930646480815746, "population": 7017, "income": 2137, "income_level": 3}, {"name": "Adamstown - Kotara", "sa2": "111031222", "lon": 151.72635160347832, "lat": -32.931857800652125, "population": 12516, "income": 1572, "income_level": 1}, {"name": "Beresfield - Hexham", "sa2": "111031223", "lon": 151.68030004378417, "lat": -32.8188691596477, "population": 12298, "income": 1833, "income_level": 2}, {"name": "Hamilton - Broadmeadow", "sa2": "111031224", "lon": 151.72815980922067, "lat": -32.920233543397, "population": 11591, "income": 1966, "income_level": 2}, {"name": "Lambton - New Lambton", "sa2": "111031225", "lon": 151.69207621184785, "lat": -32.92706780839125, "population": 15186, "income": 2152, "income_level": 3}, {"name": "Maryland - Fletcher - Minmi", "sa2": "111031226", "lon": 151.63773384981403, "lat": -32.88135731311623, "population": 15979, "income": 1411, "income_level": 1}, {"name": "Mayfield - Warabrook", "sa2": "111031227", "lon": 151.73452727140008, "lat": -32.902148137799955, "population": 18834, "income": 1669, "income_level": 2}, {"name": "Merewether - The Junction", "sa2": "111031228", "lon": 151.75052686418192, "lat": -32.9445429304545, "population": 24708, "income": 1000, "income_level": 1}, {"name": "Newcastle - Cooks Hill", "sa2": "111031229", "lon": 151.77595422140558, "lat": -32.93793961760835, "population": 17193, "income": 1190, "income_level": 1}, {"name": "Newcastle Port - Kooragang", "sa2": "111031230", "lon": 151.78599527857145, "lat": -32.884634532857106, "population": 20821, "income": 1154, "income_level": 1}, {"name": "Shortland - Jesmond", "sa2": "111031231", "lon": 151.68916276052101, "lat": -32.868517053152715, "population": 9772, "income": 1637, "income_level": 2}, {"name": "Stockton - Fullerton Cove", "sa2": "111031232", "lon": 151.8090215207901, "lat": -32.85715407949996, "population": 17700, "income": 969, "income_level": 1}, {"name": "Wallsend - Elermore Vale", "sa2": "111031233", "lon": 151.6872649945834, "lat": -32.902873846666616, "population": 19091, "income": 1203, "income_level": 1}, {"name": "Waratah - North Lambton", "sa2": "111031234", "lon": 151.71998320451226, "lat": -32.898074828390214, "population": 8332, "income": 1430, "income_level": 1}, {"name": "Wickham - Carrington - Tighes Hill", "sa2": "111031235", "lon": 151.75401266306255, "lat": -32.90412905449996, "population": 4422, "income": 1976, "income_level": 2}, {"name": "Ballina", "sa2": "112011236", "lon": 153.5569513956868, "lat": -28.829030706987904, "population": 18044, "income": 1272, "income_level": 1}, {"name": "Ballina Region", "sa2": "112011237", "lon": 153.5307020327576, "lat": -28.82408469839389, "population": 10864, "income": 1453, "income_level": 1}, {"name": "Bangalow", "sa2": "112011238", "lon": 153.52593508729552, "lat": -28.683773927522676, "population": 35, "income": 1125, "income_level": 1}, {"name": "Brunswick Heads - Ocean Shores", "sa2": "112011239", "lon": 153.54550842525003, "lat": -28.556127675799974, "population": 15662, "income": 1584, "income_level": 1}, {"name": "Byron Bay", "sa2": "112011240", "lon": 153.6201394154635, "lat": -28.64491528560971, "population": 18746, "income": 1838, "income_level": 2}, {"name": "Evans Head", "sa2": "112011241", "lon": 153.4301467332814, "lat": -29.1215470650312, "population": 20706, "income": 2123, "income_level": 3}, {"name": "Lennox Head - Skennars Head", "sa2": "112011242", "lon": 153.59724253138467, "lat": -28.80341549399996, "population": 27172, "income": 1088, "income_level": 1}, {"name": "Mullumbimby", "sa2": "112011243", "lon": 153.36151825351936, "lat": -28.564374648897374, "population": 11681, "income": 979, "income_level": 1}, {"name": "Casino", "sa2": "112021244", "lon": 153.0161965897334, "lat": -28.86536019433328, "population": 17585, "income": 2032, "income_level": 3}, {"name": "Casino Region", "sa2": "112021245", "lon": 152.73640515790052, "lat": -28.776273904020712, "population": 5799, "income": 981, "income_level": 1}, {"name": "Goonellabah", "sa2": "112021246", "lon": 153.3442191032042, "lat": -28.82461171183668, "population": 17473, "income": 2127, "income_level": 3}, {"name": "Kyogle", "sa2": "112021247", "lon": 152.99825295372054, "lat": -28.617134139892443, "population": 18234, "income": 1651, "income_level": 2}, {"name": "Lismore", "sa2": "112021248", "lon": 153.28935774712505, "lat": -28.810003758249955, "population": 15939, "income": 1716, "income_level": 2}, {"name": "Lismore Region", "sa2": "112021249", "lon": 153.32945833009862, "lat": -28.673563033261036, "population": 11766, "income": 1569, "income_level": 1}, {"name": "Kingscliff - Fingal Head", "sa2": "112031250", "lon": 153.56697030316812, "lat": -28.305431521571375, "population": 12061, "income": 2182, "income_level": 3}, {"name": "Murwillumbah", "sa2": "112031251", "lon": 153.41921791900006, "lat": -28.33354900099996, "population": 23491, "income": 1822, "income_level": 2}, {"name": "Murwillumbah Region", "sa2": "112031252", "lon": 153.31507073630567, "lat": -28.372249505124948, "population": 3148, "income": 2988, "income_level": 3}, {"name": "Pottsville", "sa2": "112031253", "lon": 153.4613140945847, "lat": -28.419361561120162, "population": 7730, "income": 2329, "income_level": 3}, {"name": "Tweed Heads", "sa2": "112031254", "lon": 153.51157446623782, "lat": -28.174274179917983, "population": 6505, "income": 1862, "income_level": 2}, {"name": "Banora Point", "sa2": "112031550", "lon": 153.51925010088138, "lat": -28.21636079506774, "population": 10363, "income": 2509, "income_level": 3}, {"name": "Terranora - North Tumblegum", "sa2": "112031551", "lon": 153.51050969845073, "lat": -28.25346597126051, "population": 21129, "income": 2343, "income_level": 3}, {"name": "Tweed Heads South", "sa2": "112031552", "lon": 153.53645894441183, "lat": -28.19145070482348, "population": 21254, "income": 2285, "income_level": 3}, {"name": "Griffith (NSW)", "sa2": "113011256", "lon": 146.0765089823585, "lat": -34.27657071215089, "population": 27, "income": 1875, "income_level": 2}, {"name": "Griffith Region", "sa2": "113011257", "lon": 145.24260281383255, "lat": -33.6935332027732, "population": 20868, "income": 1692, "income_level": 2}, {"name": "Leeton", "sa2": "113011258", "lon": 146.3944723748159, "lat": -34.56751805168417, "population": 16993, "income": 1961, "income_level": 2}, {"name": "Narrandera", "sa2": "113011259", "lon": 146.71505009777198, "lat": -34.785757535632314, "population": 7246, "income": 2153, "income_level": 3}, {"name": "Tumbarumba", "sa2": "113021260", "lon": 147.8670172998231, "lat": -35.67148901403117, "population": 3652, "income": 2769, "income_level": 3}]